{
  "type": "FeatureCollection",
  "title": "Thignica",
  "id": "315207",
  "bbox": [
    9.34721,
    36.519866,
    9.3622199,
    36.5242319
  ],
  "description": "An ancient place, cited: BAtlas 32 D3 Thignica",
  "names": [
    "Thignica"
  ],
  "features": [
    {
      "type": "Feature",
      "geometry": {
        "type": "Point",
        "coordinates": [
          9.3576462,
          36.522696875
        ]
      },
      "properties": {
        "description": "representative point"
      }
    },
    {
      "geometry": {
        "type": "Point",
        "coordinates": [
          9.34721,
          36.519866
        ]
      },
      "id": "darmc-location-6465",
      "type": "Feature",
      "properties": {
        "description": "500K scale point location",
        "location_precision": "precise",
        "title": "DARMC location 6465",
        "link": "http://pleiades.stoa.org/places/315207/darmc-location-6465"
      }
    },
    {
      "geometry": {
        "type": "Point",
        "coordinates": [
          9.361747,
          36.523659
        ]
      },
      "id": "dare-location",
      "type": "Feature",
      "properties": {
        "description": "Representative point location, site precision",
        "location_precision": "precise",
        "title": "DARE Location",
        "link": "http://pleiades.stoa.org/places/315207/dare-location"
      }
    },
    {
      "geometry": {
        "type": "Point",
        "coordinates": [
          9.3622199,
          36.5230306
        ]
      },
      "id": "location-of-roman-theater",
      "type": "Feature",
      "properties": {
        "description": "Location based on OpenStreetMap",
        "location_precision": "precise",
        "title": "location of Roman theater",
        "link": "http://pleiades.stoa.org/places/315207/location-of-roman-theater"
      }
    },
    {
      "geometry": {
        "type": "Point",
        "coordinates": [
          9.3594079,
          36.5242319
        ]
      },
      "id": "location-of-byzantine-fortress",
      "type": "Feature",
      "properties": {
        "description": "Location based on OpenStreetMap",
        "location_precision": "precise",
        "title": "location of Byzantine fortress",
        "link": "http://pleiades.stoa.org/places/315207/location-of-byzantine-fortress"
      }
    }
  ]
}