{
  "type": "FeatureCollection",
  "title": "Via Flaminia",
  "id": "856514595",
  "description": "A major Roman road connecting Rome and Ariminum, by way of Narnia and Nuceria. The road was begun under the censorship of Caius Flaminius Nepos in 220 BC.",
  "bbox": [
    12.476652,
    41.8917,
    13.016921,
    44.0605151
  ],
  "connectsWith": [
    "a43b4365550140930737562d717ad361"
  ],
  "reprPoint": [
    12.6411232982,
    42.938118485
  ],
  "names": [
    "Flaminia odos",
    "Via Flaminia"
  ],
  "features": [
    {
      "geometry": {
        "type": "Point",
        "coordinates": [
          12.51442068000592,
          42.52530316755394,
          0.0
        ]
      },
      "id": "narnia-bridge",
      "type": "Feature",
      "properties": {
        "description": "Imported KML Placemark",
        "location_precision": "precise",
        "title": "Narnia Bridge",
        "link": "http://pleiades.stoa.org/places/856514595/narnia-bridge"
      }
    },
    {
      "geometry": {
        "type": "Point",
        "coordinates": [
          12.53594775220068,
          42.56069010277716,
          0.0
        ]
      },
      "id": "ponte-calamone",
      "type": "Feature",
      "properties": {
        "description": "Imported KML Placemark",
        "location_precision": "precise",
        "title": "~Ponte Calamone",
        "link": "http://pleiades.stoa.org/places/856514595/ponte-calamone"
      }
    },
    {
      "geometry": {
        "type": "Point",
        "coordinates": [
          12.53809252742489,
          42.570114,
          0.0
        ]
      },
      "id": "ponte-caldaro",
      "type": "Feature",
      "properties": {
        "description": "Imported KML Placemark",
        "location_precision": "precise",
        "title": "Ponte Caldaro",
        "link": "http://pleiades.stoa.org/places/856514595/ponte-caldaro"
      }
    },
    {
      "geometry": {
        "type": "Point",
        "coordinates": [
          12.557642865854,
          42.63951145550759,
          0.0
        ]
      },
      "id": "carsulae-i",
      "type": "Feature",
      "properties": {
        "description": "Imported KML Placemark",
        "location_precision": "precise",
        "title": "Carsulae I",
        "link": "http://pleiades.stoa.org/places/856514595/carsulae-i"
      }
    },
    {
      "geometry": {
        "type": "Point",
        "coordinates": [
          12.55680844030031,
          42.64185642155336,
          0.0
        ]
      },
      "id": "carsulae-n-gate",
      "type": "Feature",
      "properties": {
        "description": "Imported KML Placemark",
        "location_precision": "precise",
        "title": "Carsulae N Gate",
        "link": "http://pleiades.stoa.org/places/856514595/carsulae-n-gate"
      }
    },
    {
      "geometry": {
        "type": "Point",
        "coordinates": [
          12.55063759230566,
          42.680205,
          0.0
        ]
      },
      "id": "san-giovanni-de-butris",
      "type": "Feature",
      "properties": {
        "description": "Imported KML Placemark",
        "location_precision": "precise",
        "title": "San Giovanni de Butris",
        "link": "http://pleiades.stoa.org/places/856514595/san-giovanni-de-butris"
      }
    },
    {
      "geometry": {
        "type": "Point",
        "coordinates": [
          12.54363888920486,
          42.717192,
          0.0
        ]
      },
      "id": "ponte-fonnaia",
      "type": "Feature",
      "properties": {
        "description": "Imported KML Placemark",
        "location_precision": "precise",
        "title": "Ponte Fonnaia",
        "link": "http://pleiades.stoa.org/places/856514595/ponte-fonnaia"
      }
    },
    {
      "geometry": {
        "type": "Point",
        "coordinates": [
          12.53842633802737,
          42.72750463350045,
          0.0
        ]
      },
      "id": "stazione-substructure",
      "type": "Feature",
      "properties": {
        "description": "Imported KML Placemark",
        "location_precision": "precise",
        "title": "Stazione Substructure",
        "link": "http://pleiades.stoa.org/places/856514595/stazione-substructure"
      }
    },
    {
      "geometry": {
        "type": "Point",
        "coordinates": [
          12.53371241611032,
          42.74389097426672,
          0.0
        ]
      },
      "id": "casa-gabelletta",
      "type": "Feature",
      "properties": {
        "description": "Imported KML Placemark",
        "location_precision": "precise",
        "title": "casa gabelletta",
        "link": "http://pleiades.stoa.org/places/856514595/casa-gabelletta"
      }
    },
    {
      "geometry": {
        "type": "Point",
        "coordinates": [
          12.53166,
          42.750987,
          0.0
        ]
      },
      "id": "vicus-ad-martis-tudertium",
      "type": "Feature",
      "properties": {
        "description": "Imported KML Placemark",
        "location_precision": "precise",
        "title": "Vicus ad Martis Tudertium",
        "link": "http://pleiades.stoa.org/places/856514595/vicus-ad-martis-tudertium"
      }
    },
    {
      "geometry": {
        "type": "Point",
        "coordinates": [
          12.53138483784047,
          42.75760524815812,
          0.0
        ]
      },
      "id": "mausoleum",
      "type": "Feature",
      "properties": {
        "description": "Imported KML Placemark",
        "location_precision": "precise",
        "title": "Mausoleum",
        "link": "http://pleiades.stoa.org/places/856514595/mausoleum"
      }
    },
    {
      "geometry": {
        "type": "Point",
        "coordinates": [
          12.61234760560369,
          42.93511321446773,
          0.0
        ]
      },
      "id": "mevania",
      "type": "Feature",
      "properties": {
        "description": "Imported KML Placemark",
        "location_precision": "precise",
        "title": "Mevania",
        "link": "http://pleiades.stoa.org/places/856514595/mevania"
      }
    },
    {
      "geometry": {
        "type": "Point",
        "coordinates": [
          12.66076748845567,
          42.95314656024824,
          0.0
        ]
      },
      "id": "fiamenga",
      "type": "Feature",
      "properties": {
        "description": "Imported KML Placemark",
        "location_precision": "precise",
        "title": "Fiamenga",
        "link": "http://pleiades.stoa.org/places/856514595/fiamenga"
      }
    },
    {
      "geometry": {
        "type": "Point",
        "coordinates": [
          12.72388888888889,
          42.98166666666667,
          0.0
        ]
      },
      "id": "san-giovanni-profiamma",
      "type": "Feature",
      "properties": {
        "description": "Imported KML Placemark",
        "location_precision": "precise",
        "title": "~San Giovanni Profiamma",
        "link": "http://pleiades.stoa.org/places/856514595/san-giovanni-profiamma"
      }
    },
    {
      "geometry": {
        "type": "Point",
        "coordinates": [
          12.77996356585933,
          43.106954,
          0.0
        ]
      },
      "id": "nocera-le-spugne",
      "type": "Feature",
      "properties": {
        "description": "Imported KML Placemark",
        "location_precision": "precise",
        "title": "Nocera \"Le Spugne\"",
        "link": "http://pleiades.stoa.org/places/856514595/nocera-le-spugne"
      }
    },
    {
      "geometry": {
        "type": "Point",
        "coordinates": [
          12.5563100279893,
          42.63823432371977,
          0.0
        ]
      },
      "id": "baths",
      "type": "Feature",
      "properties": {
        "description": "Imported KML Placemark",
        "location_precision": "precise",
        "title": "Baths",
        "link": "http://pleiades.stoa.org/places/856514595/baths"
      }
    },
    {
      "geometry": {
        "type": "Point",
        "coordinates": [
          12.52887435760296,
          42.73217395769355,
          0.0
        ]
      },
      "id": "church-of-villa-san-faustino",
      "type": "Feature",
      "properties": {
        "description": "Imported KML Placemark",
        "location_precision": "precise",
        "title": "Church of Villa San Faustino",
        "link": "http://pleiades.stoa.org/places/856514595/church-of-villa-san-faustino"
      }
    },
    {
      "geometry": {
        "type": "Point",
        "coordinates": [
          12.73746997843234,
          42.74487944371121,
          0.0
        ]
      },
      "id": "spoleto",
      "type": "Feature",
      "properties": {
        "description": "Imported KML Placemark",
        "location_precision": "precise",
        "title": "Spoleto",
        "link": "http://pleiades.stoa.org/places/856514595/spoleto"
      }
    },
    {
      "geometry": {
        "type": "Point",
        "coordinates": [
          12.64682039017339,
          42.56116655513873,
          0.0
        ]
      },
      "id": "terni",
      "type": "Feature",
      "properties": {
        "description": "Imported KML Placemark",
        "location_precision": "precise",
        "title": "Terni",
        "link": "http://pleiades.stoa.org/places/856514595/terni"
      }
    },
    {
      "geometry": {
        "type": "Point",
        "coordinates": [
          12.5573908,
          42.6384079
        ]
      },
      "id": "location-of-via-flaminia-at-carsulae",
      "type": "Feature",
      "properties": {
        "description": "Location based on OpenStreetMap",
        "location_precision": "precise",
        "title": "location of Via Flaminia at Carsulae",
        "link": "http://pleiades.stoa.org/places/856514595/location-of-via-flaminia-at-carsulae"
      }
    }
  ]
}